<?xml version="1.0" encoding="utf-8" ?>
<request>
	<grid name="input">
		<grid_columns>
			<column name="area_name" header="Area Name" data_type="char(100)" editable="1" />
			<column name="price" header="Price ($)" data_type="bigint" editable="1" />
			<column name="lat" header="Latitude" data_type="decimal(9,6)" editable="0" />
			<column name="lng" header="Longitude" data_type="decimal(9,6)" editable="0" />
		</grid_columns>
		<grid_rows>
			<row area_name="Richview" price="999888" lat="43.679882" lng="-79.544266" />
			<row area_name="Chedoke Park B" price="399900" lat="43.25" lng="-79.904396" />
			<row area_name="Ainslie Wood East" price="479000" lat="43.25169" lng="-79.919357" />
			<row area_name="Greenford" price="285900" lat="43.227161" lng="-79.767403" />
			<row area_name="Downtown" price="362000" lat="43.651478" lng="-79.368118" />
			<row area_name="Old East York" price="1488000" lat="43.686375" lng="-79.328918" />
		</grid_rows>
	</grid>
</request>
